{"type":"FeatureCollection", "features": [
{"type":"Feature","geometry":{"type":"Point","coordinates":[31.580025592787308,4.829975198277964]},"properties":{"NAME":"Juba"}},
{"type":"Feature","geometry":{"type":"Point","coordinates":[-13.200005942222674,27.14998231913546]},"properties":{"NAME":"Laayoune"}},
{"type":"Feature","geometry":{"type":"Point","coordinates":[10.179678099212026,36.80277813623144]},"properties":{"NAME":"Tunis"}},
{"type":"Feature","geometry":{"type":"Point","coordinates":[58.38329911177465,37.949994933110986]},"properties":{"NAME":"Ashgabat"}},
{"type":"Feature","geometry":{"type":"Point","coordinates":[31.042763572062825,-17.815843835777798]},"properties":{"NAME":"Harare"}},
{"type":"Feature","geometry":{"type":"Point","coordinates":[125.57945593170507,-8.559388408546454]},"properties":{"NAME":"Dili"}},
{"type":"Feature","geometry":{"type":"Point","coordinates":[-21.950014487179544,64.15002361973922]},"properties":{"NAME":"Reykjavík"}},
{"type":"Feature","geometry":{"type":"Point","coordinates":[-55.16703088542437,5.835030129922586]},"properties":{"NAME":"Paramaribo"}},
{"type":"Feature","geometry":{"type":"Point","coordinates":[147.19250362059358,-9.464707825867777]},"properties":{"NAME":"Port Moresby"}},
{"type":"Feature","geometry":{"type":"Point","coordinates":[-79.53498301041077,8.969963049094872]},"properties":{"NAME":"Panama City"}},
{"type":"Feature","geometry":{"type":"Point","coordinates":[-6.83640815612614,34.02530731107282]},"properties":{"NAME":"Rabat"}},
{"type":"Feature","geometry":{"type":"Point","coordinates":[32.58721710397009,-25.953331628778983]},"properties":{"NAME":"Maputo"}},
{"type":"Feature","geometry":{"type":"Point","coordinates":[45.36473175245874,2.068627192947531]},"properties":{"NAME":"Mogadishu"}},
{"type":"Feature","geometry":{"type":"Point","coordinates":[79.85775060925641,6.931965758182116]},"properties":{"NAME":"Colombo"}},
{"type":"Feature","geometry":{"type":"Point","coordinates":[106.91466990374653,47.91861925856074]},"properties":{"NAME":"Ulaanbaatar"}},
{"type":"Feature","geometry":{"type":"Point","coordinates":[17.08354610054181,-22.570006084383806]},"properties":{"NAME":"Windhoek"}},
{"type":"Feature","geometry":{"type":"Point","coordinates":[7.53138214293233,9.085279007754195]},"properties":{"NAME":"Abuja"}},
{"type":"Feature","geometry":{"type":"Point","coordinates":[47.51467804152986,-18.914691492032148]},"properties":{"NAME":"Antananarivo"}},
{"type":"Feature","geometry":{"type":"Point","coordinates":[-78.5019969671124,-0.2130423220355624]},"properties":{"NAME":"Quito"}},
{"type":"Feature","geometry":{"type":"Point","coordinates":[-84.08599721127536,9.936958288356607]},"properties":{"NAME":"San José"}},
{"type":"Feature","geometry":{"type":"Point","coordinates":[-89.2049870794599,13.711947505494038]},"properties":{"NAME":"San Salvador"}},
{"type":"Feature","geometry":{"type":"Point","coordinates":[15.047202455462298,12.115042394810644]},"properties":{"NAME":"Ndjamena"}},
{"type":"Feature","geometry":{"type":"Point","coordinates":[33.78330195998353,-13.983295065469179]},"properties":{"NAME":"Lilongwe"}},
{"type":"Feature","geometry":{"type":"Point","coordinates":[178.44170731537986,-18.133015931371233]},"properties":{"NAME":"Suva"}},
{"type":"Feature","geometry":{"type":"Point","coordinates":[-15.975340414890013,18.086427021247516]},"properties":{"NAME":"Nouakchott"}},
{"type":"Feature","geometry":{"type":"Point","coordinates":[-8.001984963249697,12.65196052632325]},"properties":{"NAME":"Bamako"}},
{"type":"Feature","geometry":{"type":"Point","coordinates":[71.427774209483,51.18112530425759]},"properties":{"NAME":"Astana"}},
{"type":"Feature","geometry":{"type":"Point","coordinates":[18.558288125287277,4.366644306349087]},"properties":{"NAME":"Bangui"}},
{"type":"Feature","geometry":{"type":"Point","coordinates":[-68.15193104910219,-16.49602775504337]},"properties":{"NAME":"La Paz"}},
{"type":"Feature","geometry":{"type":"Point","coordinates":[105.8480683412422,21.035273107737055]},"properties":{"NAME":"Hanoi"}},
{"type":"Feature","geometry":{"type":"Point","coordinates":[44.20464752393843,15.356679154263645]},"properties":{"NAME":"Sanaa"}},
{"type":"Feature","geometry":{"type":"Point","coordinates":[36.29805003041707,33.50197985420613]},"properties":{"NAME":"Damascus"}},
{"type":"Feature","geometry":{"type":"Point","coordinates":[32.532233380011576,15.590024084277673]},"properties":{"NAME":"Khartoum"}},
{"type":"Feature","geometry":{"type":"Point","coordinates":[10.748033347372314,59.91863614500187]},"properties":{"NAME":"Oslo"}},
{"type":"Feature","geometry":{"type":"Point","coordinates":[20.998053692465305,52.25194648839556]},"properties":{"NAME":"Warsaw"}},
{"type":"Feature","geometry":{"type":"Point","coordinates":[39.26639597769457,-6.798066736124383]},"properties":{"NAME":"Dar es Salaam"}},
{"type":"Feature","geometry":{"type":"Point","coordinates":[-10.799660436775923,6.314581647160139]},"properties":{"NAME":"Monrovia"}},
{"type":"Feature","geometry":{"type":"Point","coordinates":[-82.3661280299533,23.1339046995422]},"properties":{"NAME":"Havana"}},
{"type":"Feature","geometry":{"type":"Point","coordinates":[-69.90203094331503,18.472018713195382]},"properties":{"NAME":"Santo Domingo"}},
{"type":"Feature","geometry":{"type":"Point","coordinates":[13.180011758078194,32.89250001935369]},"properties":{"NAME":"Tripoli"}},
{"type":"Feature","geometry":{"type":"Point","coordinates":[24.93218048284558,60.17750923256807]},"properties":{"NAME":"Helsinki"}},
{"type":"Feature","geometry":{"type":"Point","coordinates":[90.40663360810754,23.725005570312817]},"properties":{"NAME":"Dhaka"}},
{"type":"Feature","geometry":{"type":"Point","coordinates":[13.23248118266855,-8.836340255012658]},"properties":{"NAME":"Luanda"}},
{"type":"Feature","geometry":{"type":"Point","coordinates":[3.048606670909237,36.765010656628135]},"properties":{"NAME":"Algiers"}},
{"type":"Feature","geometry":{"type":"Point","coordinates":[-66.91898305105042,10.502944413033333]},"properties":{"NAME":"Caracas"}},
{"type":"Feature","geometry":{"type":"Point","coordinates":[55.27802846473787,25.231942012376066]},"properties":{"NAME":"Dubai"}},
{"type":"Feature","geometry":{"type":"Point","coordinates":[-3.6852975446125242,40.40197212311381]},"properties":{"NAME":"Madrid"}},
{"type":"Feature","geometry":{"type":"Point","coordinates":[100.51469879369489,13.751945064087977]},"properties":{"NAME":"Bangkok"}},
{"type":"Feature","geometry":{"type":"Point","coordinates":[-77.05200795343472,-12.04606681752557]},"properties":{"NAME":"Lima"}},
{"type":"Feature","geometry":{"type":"Point","coordinates":[-17.47507598705056,14.717777583623274]},"properties":{"NAME":"Dakar"}},
{"type":"Feature","geometry":{"type":"Point","coordinates":[126.99778513820195,37.56829495838895]},"properties":{"NAME":"Seoul"}},
{"type":"Feature","geometry":{"type":"Point","coordinates":[120.9802713035424,14.606104813440538]},"properties":{"NAME":"Manila"}},
{"type":"Feature","geometry":{"type":"Point","coordinates":[-100.33193064232995,25.671940995125283]},"properties":{"NAME":"Monterrey"}},
{"type":"Feature","geometry":{"type":"Point","coordinates":[13.399602764700546,52.523764522251156]},"properties":{"NAME":"Berlin"}},
{"type":"Feature","geometry":{"type":"Point","coordinates":[104.06807363094873,30.671945877957796]},"properties":{"NAME":"Chengdu"}},
{"type":"Feature","geometry":{"type":"Point","coordinates":[15.313026023171744,-4.327778243275986]},"properties":{"NAME":"Kinshasa"}},
{"type":"Feature","geometry":{"type":"Point","coordinates":[77.19998002005303,28.600023009245433]},"properties":{"NAME":"New Delhi"}},
{"type":"Feature","geometry":{"type":"Point","coordinates":[77.55806386521755,12.97194099507442]},"properties":{"NAME":"Bangalore"}},
{"type":"Feature","geometry":{"type":"Point","coordinates":[44.391922914564134,33.34059435615865]},"properties":{"NAME":"Baghdad"}},
{"type":"Feature","geometry":{"type":"Point","coordinates":[38.69805857534868,9.035256221295754]},"properties":{"NAME":"Addis Ababa"}},
{"type":"Feature","geometry":{"type":"Point","coordinates":[51.42239817500899,35.673888627001304]},"properties":{"NAME":"Tehran"}},
{"type":"Feature","geometry":{"type":"Point","coordinates":[-123.1235900763943,49.27536244271175]},"properties":{"NAME":"Vancouver"}},
{"type":"Feature","geometry":{"type":"Point","coordinates":[-79.42196665298843,43.70192573640844]},"properties":{"NAME":"Toronto"}},
{"type":"Feature","geometry":{"type":"Point","coordinates":[-58.399477232331435,-34.600555749907414]},"properties":{"NAME":"Buenos Aires"}},
{"type":"Feature","geometry":{"type":"Point","coordinates":[69.18131419070505,34.51863614490031]},"properties":{"NAME":"Kabul"}},
{"type":"Feature","geometry":{"type":"Point","coordinates":[121.568333333333,25.0358333333333]},"properties":{"NAME":"Taipei"}},
{"type":"Feature","geometry":{"type":"Point","coordinates":[174.76302698707957,-36.848054894932005]},"properties":{"NAME":"Auckland"}},
{"type":"Feature","geometry":{"type":"Point","coordinates":[-118.18192636994041,33.99192410876543]},"properties":{"NAME":"Los Angeles"}},
{"type":"Feature","geometry":{"type":"Point","coordinates":[-73.98196278740681,40.75192492259464]},"properties":{"NAME":"New York"}},
{"type":"Feature","geometry":{"type":"Point","coordinates":[-0.11866770247593195,51.5019405883275]},"properties":{"NAME":"London"}},
{"type":"Feature","geometry":{"type":"Point","coordinates":[29.008055727002613,41.10694201243979]},"properties":{"NAME":"Istanbul"}},
{"type":"Feature","geometry":{"type":"Point","coordinates":[46.770795798688255,24.642779007816443]},"properties":{"NAME":"Riyadh"}},
{"type":"Feature","geometry":{"type":"Point","coordinates":[18.43304229922603,-33.91806510862875]},"properties":{"NAME":"Cape Town"}},
{"type":"Feature","geometry":{"type":"Point","coordinates":[37.6135769672714,55.75410998124818]},"properties":{"NAME":"Moscow"}},
{"type":"Feature","geometry":{"type":"Point","coordinates":[-99.1329340602939,19.444388301415472]},"properties":{"NAME":"Mexico City"}},
{"type":"Feature","geometry":{"type":"Point","coordinates":[3.3895852125984334,6.445207512093191]},"properties":{"NAME":"Lagos"}},
{"type":"Feature","geometry":{"type":"Point","coordinates":[12.481312562873995,41.89790148509894]},"properties":{"NAME":"Rome"}},
{"type":"Feature","geometry":{"type":"Point","coordinates":[116.38633982565943,39.93083808990906]},"properties":{"NAME":"Beijing"}},
{"type":"Feature","geometry":{"type":"Point","coordinates":[36.81471100047145,-1.2814008832377795]},"properties":{"NAME":"Nairobi"}},
{"type":"Feature","geometry":{"type":"Point","coordinates":[106.82749176247012,-6.172471846798885]},"properties":{"NAME":"Jakarta"}},
{"type":"Feature","geometry":{"type":"Point","coordinates":[-74.08528981377441,4.598369421147822]},"properties":{"NAME":"Bogota"}},
{"type":"Feature","geometry":{"type":"Point","coordinates":[31.248022361126118,30.051906205103705]},"properties":{"NAME":"Cairo"}},
{"type":"Feature","geometry":{"type":"Point","coordinates":[121.43455881982015,31.218398311228327]},"properties":{"NAME":"Shanghai"}},
{"type":"Feature","geometry":{"type":"Point","coordinates":[139.74946157054467,35.686962764371174]},"properties":{"NAME":"Tokyo"}},
{"type":"Feature","geometry":{"type":"Point","coordinates":[72.85504343876647,19.0189362343566]},"properties":{"NAME":"Mumbai"}},
{"type":"Feature","geometry":{"type":"Point","coordinates":[2.33138946713035,48.86863878981461]},"properties":{"NAME":"Paris"}},
{"type":"Feature","geometry":{"type":"Point","coordinates":[-70.66898671317483,-33.448067956934096]},"properties":{"NAME":"Santiago"}},
{"type":"Feature","geometry":{"type":"Point","coordinates":[-43.22696665284366,-22.923077315615956]},"properties":{"NAME":"Rio de Janeiro"}},
{"type":"Feature","geometry":{"type":"Point","coordinates":[151.1832339501475,-33.91806510862875]},"properties":{"NAME":"Sydney"}},
{"type":"Feature","geometry":{"type":"Point","coordinates":[103.85387481909902,1.2949793251059418]},"properties":{"NAME":"Singapore"}}
]}